[
  {
    "id": 1,
    "name": "Statue of Liberty",
    "category": "Landmark",
    "desc": "Neoclassical icon on Liberty Island — take the ferry for stunning harbor views",
    "lat": 40.6892,
    "lng": -74.0445,
    "weatherSensitive": true
  },
  {
    "id": 2,
    "name": "Central Park",
    "category": "Park",
    "desc": "843 acres of paths, lakes and meadows in the heart of Manhattan",
    "lat": 40.7851,
    "lng": -73.9683,
    "weatherSensitive": true
  },
  {
    "id": 3,
    "name": "Times Square",
    "category": "Entertainment",
    "desc": "The crossroads of the world — neon billboards, Broadway, and endless energy",
    "lat": 40.7580,
    "lng": -73.9855,
    "weatherSensitive": false
  },
  {
    "id": 4,
    "name": "Empire State Building",
    "category": "Landmark",
    "desc": "Art Deco icon with a 86th-floor observatory and panoramic city views",
    "lat": 40.7484,
    "lng": -73.9967,
    "weatherSensitive": true
  },
  {
    "id": 5,
    "name": "Brooklyn Bridge",
    "category": "Landmark",
    "desc": "Walk the iconic 1883 suspension bridge for sweeping views of Lower Manhattan",
    "lat": 40.7061,
    "lng": -73.9969,
    "weatherSensitive": true
  },
  {
    "id": 6,
    "name": "The Met",
    "category": "Museum",
    "desc": "One of the world's greatest museums — 5,000 years of art under one roof",
    "lat": 40.7794,
    "lng": -73.9632,
    "weatherSensitive": false
  },
  {
    "id": 7,
    "name": "One World Observatory",
    "category": "Landmark",
    "desc": "Top-floor observatory of the Western Hemisphere's tallest building — 360° views from 1,250 ft",
    "lat": 40.7127,
    "lng": -74.0134,
    "weatherSensitive": true
  },
  {
    "id": 8,
    "name": "The High Line",
    "category": "Park",
    "desc": "Elevated linear park on a historic freight rail line through Chelsea & Hudson Yards",
    "lat": 40.7480,
    "lng": -74.0048,
    "weatherSensitive": true
  },
  {
    "id": 9,
    "name": "Rockefeller Center",
    "category": "Landmark",
    "desc": "Art Deco complex with Top of the Rock observatory and the famous skating rink",
    "lat": 40.7587,
    "lng": -73.9787,
    "weatherSensitive": false
  },
  {
    "id": 10,
    "name": "Grand Central Terminal",
    "category": "Landmark",
    "desc": "Magnificent Beaux-Arts terminal with a celestial ceiling mural — NYC's busiest station",
    "lat": 40.7527,
    "lng": -73.9772,
    "weatherSensitive": false
  },
  {
    "id": 11,
    "name": "DUMBO",
    "category": "Neighborhood",
    "desc": "Trendy waterfront district under the Manhattan Bridge with stunning skyline views",
    "lat": 40.7033,
    "lng": -73.9881,
    "weatherSensitive": true
  },
  {
    "id": 12,
    "name": "9/11 Memorial & Museum",
    "category": "Museum",
    "desc": "Solemn twin reflecting pools mark the footprints of the Twin Towers — museum below tells the full story",
    "lat": 40.7115,
    "lng": -74.0134,
    "weatherSensitive": true
  },
  {
    "id": 13,
    "name": "Freehand New York",
    "category": "Hotel",
    "desc": "Stylish 4-star hotel in the Flatiron District with a rooftop bar and vibrant common spaces",
    "lat": 40.7432,
    "lng": -73.9871,
    "weatherSensitive": false,
    "icon": "🏠"
  },
  {
    "id": 14,
    "name": "Wall Street",
    "category": "Landmark",
    "desc": "The historic heart of American finance — lined with neoclassical buildings and bronze bull sculptures",
    "lat": 40.7069,
    "lng": -74.0089,
    "weatherSensitive": false
  },
  {
    "id": 15,
    "name": "New York Stock Exchange",
    "category": "Landmark",
    "desc": "The world's largest stock exchange, fronted by a grand Corinthian colonnade on Broad Street",
    "lat": 40.7069,
    "lng": -74.0113,
    "weatherSensitive": false
  },
  {
    "id": 16,
    "name": "Chrysler Building",
    "category": "Landmark",
    "desc": "Art Deco masterpiece with a gleaming stainless steel crown — one of NYC's most beloved skyscrapers",
    "lat": 40.7516,
    "lng": -73.9755,
    "weatherSensitive": true
  },
  {
    "id": 17,
    "name": "Madison Square Park",
    "category": "Park",
    "desc": "Leafy urban park at the Flatiron crossroads — great for people-watching and the original Shake Shack",
    "lat": 40.7421,
    "lng": -73.9876,
    "weatherSensitive": true
  },
  {
    "id": 18,
    "name": "Flatiron Building",
    "category": "Landmark",
    "desc": "Iconic triangular 1902 skyscraper at the convergence of Broadway and Fifth Avenue",
    "lat": 40.7411,
    "lng": -73.9897,
    "weatherSensitive": true
  }
]
